id,service,name,latitude,longitude
UMpGq0Ae7wt_xCLZYQ7MZA,banks,Chase Bank,43.07622439954422,-89.38459073398465
X8r5_qJST65OtSjXYaP3Ow,banks,Madison Credit Union,43.083134,-89.371376
h-184ODQhOgVoe235jkHLw,banks,US Bank Branch,43.0729961,-89.3988751
6ngXtProzoE3kh-T1p9nyQ,banks,Monona Bank,43.0594267,-89.3261044
-nyo_j-Gt6GRifVS6yszyQ,banks,Wells Fargo Bank,43.059342,-89.50237
TQtkWhT_GIxdawwbNc7Czw,banks,U.S. Bank Branch,43.0749207,-89.4505005
P4Pll87ZhwNMDXzQU0piOQ,banks,Associated Bank,43.067174279748755,-89.41349514144243
HY7SErrQ8M6ooSTlKM1Hzw,banks,Heartland Credit Union,43.08075,-89.36843
goA823bcbiOctrkSJ5JWJA,banks,Associated Bank,43.083866017649136,-89.306577
S3k-Q-xWcYi48d6jrCAp5Q,banks,BMO Harris Bank,42.988702,-89.547079
z9nBvMPFbgNq-CmddKTEUw,banks,Summit Credit Union,43.0134262408595,-89.4279972951489
zOKQsXwQMhnwl3SbmtbvpA,banks,UW Credit Union,43.076529,-89.451246
vUYOUOV7yyhCbr1tiDXr8g,banks,Chase Bank,43.07398043482549,-89.51919038419202
occYtpxVbV_kNSBe3GgcFg,banks,Old National Bank,43.073037,-89.3838895
2yNKtMUU91FPRo59DcmWig,banks,Chase Bank,43.04674120391901,-89.35121392069684
ceIa1DaduaerGbGKzwLSJg,banks,Landmark Credit Union,43.06944,-89.4044
Cx7V5x4kaQ136xc4ZdDBFQ,banks,UW Credit Union,43.10625,-89.4971
V8fCWCs2hVyeY7IcXcOzmA,banks,UW Credit Union,43.06615,-89.52543
9KR0IoAeCuWCop50fojSIA,banks,U.S. Bank Branch,43.0753708,-89.3819733
HE23DlZWAO_JF1VIHA60TQ,banks,UW Credit Union,43.076112793318,-89.3844732642174
SZJ4Qt5KWucHTNo8Ng47zw,banks,Summit Credit Union,43.0559046,-89.3260199
yWuG-KjxsaKP46gjC9wzbQ,banks,Wells Fargo Bank,43.1258202,-89.3089523
slQEKVl2VU60bvsPmfESBA,banks,Members First Credit Union,43.03486,-89.43394
Y515pLTOfh87oqXV2F9dxQ,banks,Associated Bank,43.19028356701024,-89.46211981165419
pbHeUD4OCreUih7Sp5fy_w,banks,Chase Bank,43.124718,-89.309137
3UlulLS0FACoL1TfQ40Pmw,banks,Dane County Credit Union,43.0424,-89.37799
MqRthoKLbreKEdnUVipg2w,banks,Associated Bank,43.07353,-89.3972
Q-XEJs9hu8LlRsfg79wxOg,banks,Oak Bank,43.01436,-89.45713
kxuAB4JaTJBw9aAZR3ziVQ,banks,UW Credit Union,43.07517,-89.3968359
ZcgV95T-iqLpzALkbNd6LA,banks,Summit Credit Union,43.15292,-89.411593
x0wwhNTMV5EFMhVOkInu0g,banks,First Business Bank,43.0601005554199,-89.4768371582031
Z9_bidiRpcZDMVDxrvDP-w,banks,Park Bank,43.0311164855957,-89.4099273681641
G6qW-8DIvG68droih7R4gw,banks,U.S. Bank Branch,43.1289443969727,-89.3056335449219
aNQ4iy85CUxb-trTuIRaxw,banks,Thompson Kane & Company,43.07701,-89.52354
zHgAc9YFlXDu071f9CeqVQ,banks,Cuna Inc-Credit Union Natl Association,43.06209,-89.47962
PXvDTQt69ELcU1PSETZ6kA,banks,UW Credit Union,43.1740913391113,-89.2659378051758
eDLZSRJaUgndQuhVocn1qA,banks,Capitol Bank,43.0755633,-89.5204466
rLbZAC63Fo1bgBZGXqInlA,banks,DreamBank - American Family Insurance,43.0812442,-89.3742167
0hVRdsBrMgTJxqmJ271XqQ,banks,UW Credit Union,43.0689024699865,-89.4103565812111
cEBxHyx1ovA-LIfggvciZQ,banks,Bmo Harris Bank,43.1130629,-89.364292
gTPANo3n022Mfx6QPYpVhw,banks,UW Credit Union,43.0475382713295,-89.3213360608431
4sYzp4SBW3DN5U-pNRpWMg,banks,McFarland State Bank,43.01388,-89.30346
mVPXOLNXxozfHFhxnvPXGg,banks,Bmo Harris Bank,43.0735502614725,-89.3832360569852
7K-xpG_x_aEC3zjswq-MWQ,banks,Summit Credit Union,43.1917007466767,-89.4514988914538
Z5OLK_-RvmXHyHaxLF1aGA,banks,Bmo Harris Bank,43.029248,-89.411382
1WW67MQxXmHep1xIkkCnPg,banks,Charles Schwab,43.08968,-89.5264399
wvLGPFfDE-HvtZlHRXRLbQ,banks,UW CREDIT UNION,43.029038,-89.4103698
lIQxvFYiRsLsnjav1M09AQ,banks,American Family Insurance - D Webster-Scher Agency,43.081491,-89.3742167
1cqMLlv0OTV1Fp0b2tvG2A,banks,BMO Harris Bank,43.0683135986328,-89.3268966674805
LPwpJOPCQWqVmcqB_9bq0g,banks,Summit Credit Union,43.0747948533396,-89.395139876798
Mbw6H58pyyDsr41wuqWDlg,banks,Summit Credit Union,43.0745942997297,-89.5263457961044
4bAbzHMqwwdsNAki0O6UCw,banks,Summit Credit Union,43.06771,-89.39557
e9p59ytidD6eKf_iwVQE0g,banks,State Bank of Cross Plains - Waunakee,43.1917,-89.4648
X1SIDeGeCKpCUngTz_2NEg,banks,Fortifi Bank,43.17638,-89.4129899
-XEA6U3N3CVjPhFCemjwCA,banks,Farmers Insurance - Debra Armstrong,43.1080249365372,-89.3634286522865
rLJAbFbrV-L3bOEgFH9d9Q,banks,Park Bank,43.07429,-89.38183
LBfFshlxd_MNSzkNHV2Buw,banks,Summit Credit Union,43.0746049571125,-89.3779233233309
C_2m9oMM_3rDQg0LhxAqpQ,banks,Associated Investment Services,43.07346,-89.45632
4aEcpK8Y5rQsPOyMMjczEw,banks,Urban Land Interests,43.0739402770996,-89.381591796875
mhMBtlU20syPUpUi8FcdQw,banks,Wisconsin Community Bank,43.0609899,-89.52651
ugYohLv9Ob3nZOcqxE9bcw,banks,Summit Credit Union,43.075758,-89.443412
VCiwaFBGyx0HMuP9Ds3O6Q,banks,U.S. Bank Branch,43.0162544250488,-89.4274597167969
B7a5Gknl7QAYKLCV33w6IQ,banks,Monona Bank - Monona,43.04765,-89.33917
bmJL_Sj5lr5WlSsMgRaxww,banks,Bmo Harris Bank,43.070526,-89.453584
reU-gDJgVNT8LEP1E30-pA,banks,Capital Lock,43.06816,-89.40778
B5G1gB-kHyENQItf-sF7sg,banks,Total Administrative Services Corporation,43.124172,-89.352107
vs9eqb7CWWYr0Nzq9Kgodw,banks,U.S. Bank Branch,43.0757,-89.524
s7fNikthWlBQFwexV3A8bQ,banks,Wisconsin Bank & Trust,43.0611965,-89.527389
Xjv34johPrbMTHePYhDN6A,banks,UW Credit Union,43.01524,-89.48357
hl48tvlfe20HgJ6H-ForvQ,banks,U.S. Bank Branch,43.1876792907715,-89.2550201416016
C-_NYInA74zB_jzAq1IrSw,banks,Madison Property Management,43.06825,-89.40617
-7rTYnDMRiMuNSxFR4bsbg,banks,Easy Mortgage Inc,43.0553173829661,-89.5169138748123
UtVNpTkc7Zp3dz3KIySuKQ,banks,Associated Bank,43.0476126,-89.3420796
HUMpTuWcdeadY5m0U_bGxQ,banks,Summit Credit Union,43.085311,-89.2674503961143
trVbiT-VDtT0lIzVu3l88A,banks,UW Credit Union,43.107557,-89.315448
d-cCnnVE0oVkuy5oPqGGEQ,banks,Associated Bank,43.06144311111156,-89.51706532065288
0glE1hOmih_LgbodfrtiPw,banks,BMO Harris Bank,43.0967714,-89.5111252
Eun0cA9A8XCArDzcuvaOmw,banks,BMO Harris Bank,43.193165,-89.461286
qz7blG91TCQpCyxXCpk2vA,banks,Heartland Credit Union,43.1397972106934,-89.2866668701172
t4avMHpFQvLc_VQo7qtIcQ,banks,U.S. Bank Branch,43.0600891,-89.5019379
ktgZ7uAI4apy-0cIpnJJtQ,banks,The Joe Long Mortgage Team,43.04655,-89.32605
VdA9xITCv3GZ3VzqBd1Rfw,banks,Apex Property Management,43.1058311,-89.3614807
V6TYNFyDBu7T0lnrHj8dqQ,banks,PayDay Loan Store,43.1025276184082,-89.3468399047852
qxT-dyrZzRg7gId_iXetJA,banks,Galaxie High Rise Apartments,43.0814163948574,-89.3748890608549
gDoXfHtkhY_7b29mod5bZQ,banks,Home Savings Bank,43.1189391,-89.3217677
dkWuK1oLhWKGsx-pfBksmQ,banks,UW Credit Union,42.9941424234645,-89.520285576582
jtMCmgl_N0pDXxV_WAcIDw,banks,Jason A Greller,43.0773735046387,-89.3815612792969
cfQdPwql20SyAYNTWlK6hw,banks,Balson Bookkeeping,43.04947,-89.39634
VM4C1Coo_R8ETg9C1En9rg,banks,Associated Bank,43.127294401105395,-89.30813
-urPlVvPdWIfVtAZuZqkrQ,banks,Schoepp Motors East,43.0626678466797,-89.310546875
gvoNelnSfCGsainKzy0I6Q,banks,Dane County Credit Union,43.1134415,-89.3311462
cOagnGmepXYsscGH-B9WQQ,banks,U.S. Bank Branch,43.1923,-89.45674
qvQfFkIrBZW_8RPf09yrCw,banks,Wea Credit Union,43.0406058953552,-89.36862756835797
uRpjhhLclGlw_0oxDVicAw,banks,BMW of Madison,43.0399958,-89.3834324
clE-tJ0dsHJuMEqGEQQyCg,banks,Property Revival,43.034281,-89.44449787436818
kDtAdFTaNLkDt35k6mum-A,banks,Berndt CPA,43.0342903137207,-89.4146118164062
JPGH6QzQkVwx6a6qQdm6MA,banks,G. F. Kerl,43.0563258,-89.4907522
yHCP87sOwVPKIouHB_1gIw,banks,Veridian Homes,43.04276,-89.35572
fsk-sPpo1yIG0-kLKsvS5A,banks,American Family Insurance,43.15578,-89.28789
FSNZwVj79qgyQcv5UBBOiA,banks,Russ Darrow Mazda of Madison,43.03613,-89.418315
TV25r0A7kr0K6Xf_o0NfEg,banks,Bergstrom Chevrolet of Madison,43.03238,-89.40599
WmvLFm9VvGYPnSRfn5oO0w,banks,Great Lakes Higher Education,43.124893016465045,-89.34952731303588
eUX3ub7CeUuVVyWV-n_jpA,banks,FedEx Office Print & Ship Center,43.06776,-89.39507
DTFhUr2XjHCct4sia2QRRw,banks,Kayser Ford Lincoln,43.03357,-89.41908
fyaURNYm4MCgTIKu64V2fA,banks,Smart Motors Toyota,43.0515637,-89.4829305
3YhtBYzyfq-ZvoqnIMkrTg,banks,Errund,43.07443,-89.3926
mKIHibcf6dlxuILIe1brsQ,banks,Summit Credit Union,43.149698,-89.291057
YtcwQSTiEqY6UJC6lSdgwg,banks,Old National Bank,43.0610357843316,-89.5073828101158
I1rA8qgt2JrdDzG_hwYSlQ,banks,C M I-Cameron Management,43.07446,-89.3807
IsUj-8rj3EdUt-Qg5bfcdw,banks,Mr Steam Carpet & Upholstery Cleaning,43.0960083007813,-89.3516845703125
3eX71PVVooLwKJWtckqF1g,banks,The Payroll Company,43.103687,-89.490902
Lq5mp5V7xqWTkcC3MJiG-w,banks,Kunes Country Madison Mitsubishi Sales Specials,43.0420080365345,-89.3757887400995
rMeqyS5ZxC7JYTQ1peuZxA,banks,Quam's Marine & Motor Sports,42.94942687175242,-89.27198697342145
xLJhP7dxfn23s9wznOT42w,banks,AT&T Internet,43.0428886413574,-89.4039688110352
OVosy6NN9M541n5qEzRAng,banks,A To Z Auto Sports,43.061936,-89.310574
aYCD_jqzFWUAxla5kS1T4w,banks,R Home Improvements,43.037135087100424,-89.38568019465627
Jpr-aUwuveJ_ul35vHlPSg,banks,Dane County Chimney Service and Masony,43.0283699035645,-89.503044128418
I2I26DwY-UBoj9D8kviB7Q,banks,Dane County Credit Union,43.049469,-89.4954987
GYuBao02_m9OToC9NyOqkA,banks,Astrid Thomson / REALTORÂ®,43.0754905,-89.5258136
wYOsL0fSNEv58IjZZ5jS5g,banks,Lexus of Madison,43.112283061922454,-89.5199753
LewP-Y42XnLr0D-8gLq8pg,banks,Stampfli Mortgage,42.987365,-89.5332751
GddOLKtodxoF6jlhBsJWNw,banks,Tingalls Graphic Design,43.013536,-89.427991
-SwMavuFA9BYgbh4whd1fw,banks,Sarko Engineering & Land Surveying,42.9880294799805,-89.5355377197266
SlI_rgp1OK4vsPG_iMXJbw,banks,Tech Plus,43.05567527193011,-89.49393220368734
dhNBZAe0fpiIruwefDKHFQ,banks,Farmers Insurance Group of Companies,43.0513114929199,-89.5008316040039
vktpb1TTvdnMRwW-eNV0uA,banks,EWH Small Business Accounting S C,43.12372,-89.31263
Jb0d23xOzC4yL19wWoCoaA,banks,Zimbrick Buick GMC West,43.033962,-89.409845
tLb6RFiHtiElWxJV3GHBbg,banks,East Madison Toyota,43.140013,-89.289802
0S0_l6TDKeE7Jc3h67KBrw,banks,Grakei Maids,43.03305817,-89.395891
39ts7eWFPEZlDvG0qJnOPw,banks,Associated Bank,43.100085198732096,-89.48668295764541
Z1g9D15fKKI5kUWWo81Ijg,banks,Schoepp Motors Northeast,43.117805,-89.325302
YAov2feSIN-wHO7vfR8yvQ,banks,Schoepp Motors Middleton,43.11173,-89.514481
LJ4nzIKyAff8Jvr3h4eD2A,banks,The Cleaning Authority - Madison,43.0316963,-89.4068878
dDZ7No0gCZBcB6Nz_FSeLw,banks,Wilde East Towne Honda,43.143451,-89.28159
ZXFwHbOeteuiX-hIHPztMA,banks,Guy Lofts - Real Broker,43.0056,-89.53134
PH_qmsBRTxLET-gYpkZHPg,banks,Dana Doskocil,43.0463214,-89.325986
g9OVqDegsFX91p_VxdM7Tw,banks,Zimbrick Nissan,43.140633,-89.288099
kDf0Qx0qXrDU211Npn5q2g,banks,Mad City Windows & Baths,43.0407326,-89.2948745
2smxwI4OgqikZN5M1dhtWg,banks,Russ Darrow Chrysler Dodge Jeep Ram of Madison,43.1392654,-89.290912
lZYLhGoedBgT6MZ4pEnsNg,banks,Bmo Harris Bank,43.060001,-89.518187
qq35wofR8tKAakqHi3wD2g,banks,Metro Ford of Madison,43.1436882,-89.2861992
rQbHDsMnf7OJGaOn9m6VUg,banks,Suttle Straus,43.1831519,-89.432695
C-S0oZRD0hqf6t2BOggBKA,banks,Metro Kia of Madison,43.1439,-89.28456
3ca_Ow2cjifKg2Ws_P7XIw,banks,Goben Cars,43.13228517874,-89.2985742090393
xMLFipoFUDOZvHj9qG1c8w,banks,Old National Bank,43.1787531961745,-89.239074744446
0l_6L-VdyIwNkOarZYXMfw,banks,Capital Cartage Storage,43.01352,-89.46902
WyGVX3b7GqFj4MbFnubarg,banks,TDS,43.18259,-89.45925
zsX0XA9L3E-kDc1sSean9w,banks,Bmo Harris Bank,43.1294034,-89.3040913
amSb6uPSiBOe8wfygRA2mQ,banks,Zimbrick Chevrolet,43.175985,-89.244692
Hjer7I1j7zVJbKaRuk3H7A,banks,Cuna Mutual Insurance Society,43.06189,-89.48272
amSb6uPSiBOe8wfygRA2mQ,banks,Zimbrick Chevrolet,43.175985,-89.244692
B2lL18B8obLb54jqOT8Ufg,banks,"The Sprinkler Guys, LLC",42.975936,-88.233162
_KVi6kbqS_m-PayhRei8UQ,banks,Charter Communications,43.057746887207,-89.2970123291016
qV32YT61LdYgZ_Z8FdLp9A,banks,Madison Flat Fee Homes,43.09657,-89.50076
Vtn5ghcsdrJKq6eC_Uwx-w,banks,Prairie Oaks Club House,43.0020821839571,-89.532178491354
fk7FqMA2TcS-XNlorooWcg,banks,Brew City Movers,43.0908584594727,-88.2629089355469
EUWmHqNhVoWqUxMm0SgC4g,banks,Metropolitan Closing Services,43.088637,-89.52593
wiFIP_wj6MHsy0UQN_uJNg,clinics,UnityPoint Health - Meriter - West Washington Clinic,43.0720386115872,-89.3879101811623
WrGYbxma7l3-qzP6-ZhgmQ,clinics,UW Health University Hospital,43.0765637419531,-89.4310555904652
zFqGxm2oIN1HCegD28wgPw,clinics,UW Health - Fitchburg Clinic,43.0046403688481,-89.4269720059695
HWBce5Z2pjC-0E2lhd7sxg,clinics,Meriter McKee Clinic,43.015749,-89.5022004
pIpsM_fVTnwCw7NZSkYkuA,clinics,UW Health University Station Clinic,43.0768547058105,-89.4379730224609
lqMQXKjjDGyI02nbYRv4rg,clinics,UnityPoint Health - Meriter - Center for Perinatal Care,43.065418,-89.401695
KEkFJ_fK68EuFsmZmZVRtQ,clinics,Family Clinic of Natural Medicine,43.10758658914,-89.3365310266113
lZA872NateEAEOy0N7CDxQ,clinics,UW Health West Clinic,43.0703214,-89.5234419
zAlCmfZZ70KmcESasGmwUQ,clinics,UW Health,43.1961074,-89.3311916
XOpQoio5U-jky2bSZ0mD2A,clinics,West Washington Clinic,43.071396,-89.387941
rfnxqUGlB0njcjEWJCZ9mg,clinics,Zhou's Acupuncture & Wellness Clinic,43.056,-89.49104
DS5TFqkcPiQx6yjUKK8_qg,clinics,WomanCare Clinic,43.0670433044434,-89.4017562866211
rB4HYopnht0Z4IVRmLGvBQ,clinics,Associated Physicians,43.06864,-89.45205
8CfODsC_jm0ZeDsKsIGo8Q,clinics,"Sippel Rebecca S, MD",43.076063,-89.4292132
T6KoF8J3tdNWKfSD9AmdrA,clinics,SSM Health Dean Medical Group,43.05256,-89.39828
8A4fBvGOaF9rkRqDiBkVbg,clinics,Vivent Health,43.07682,-89.37459
dkvYP1rpIebxJ2zOmpW2xA,clinics,UW Health Monona Clinic,43.0480539053679,-89.3139593303204
10r7cl4SxcJ3WB6muiBQqQ,clinics,Union Corners Urgent Care Clinic,43.0978841,-89.349659
O_EVcRCAfgJbVdSn1Kbtjg,clinics,UW Health Aboretum Clinic Pharmacy,43.05486,-89.3976799
IQDOSTF0NpeHlku6woaWLw,clinics,Concentra Medical Centers,43.06741,-89.5251399
jJF5IG6hiqLF3je5JtmDtw,clinics,UW Health West Towne Clinic,43.06135,-89.50582
SnasIDaq7oW6ZxgY18ibAg,clinics,UW Health Northeast Family Medicine Clinic,43.12911,-89.35751
SxdIfpEa_whbUZs8hN_JOA,clinics,UW Health Psychiatric Institute and Clinic,43.0552322458832,-89.4841201533249
mz3de_Heb23lX5UM1iXg-w,clinics,Accent Chiropractic Clinic SC,43.12057,-89.30837
BtQhEE-ffib13I7Niu5Vvg,clinics,UW Health,43.067102,-89.40159
hl4vOA7T2VrTKWh1jXFssQ,clinics,Wingra Family Medical Center,43.054839,-89.39762
NsfF9n-PikNE2BYa9KnJDA,clinics,UW Health Neurology Clinic,43.0772609882185,-89.4316568770602
2JHS6YDyVtZjBCRTSDAilw,clinics,Group Health Cooperative of South Central Wisconsin,43.0213928222656,-89.4201889038086
ODh1V7oD_oBkZY-DxrJjqQ,clinics,Pathways to Wellness Center,43.094799,-89.512077
U84_5kUbyoX622ywmEVUKg,clinics,Robertson Cosmetic Center,43.0899567276822,-89.5272885923126
7rcerUTBWV7jJSp7U_aHXQ,clinics,First Care Clinic,43.1144599914551,-89.3207855224609
FLs90tgegDnQISAudWgNGA,clinics,Massage Envy - East Washington,43.130446,-89.305864
GgsiehHJs_Lu8Z5ZOZJaww,clinics,UW Health - Yahara Clinic,43.0481459,-89.3155985
l8CeHjnLdzlRmv51RVcIyQ,clinics,UW Health - East Clinic,43.144786,-89.288749
DFoRd3mxeNCfjLijdvPHAg,clinics,A Healer's Hand + The Nest,43.0728649,-89.388095
TM6ljWS_BKLKbSsSniDR_Q,clinics,Forum Health Madison,43.01729,-89.428487
KuiIXBhqVyZbBRsZUAoAtg,clinics,PRO Physical Therapy - Middleton,43.09641,-89.49624
lm0mksdtXpE44Ib8lJJ3Mg,clinics,Golden Heart Senior Care,43.0581321716309,-89.4913101196289
8aPGbsyxQggyKzYH2n6VBw,clinics,UW Carbone Cancer Center,43.076776,-89.431095
ikYe-I6NhKjqozUaIkkk4w,clinics,AnShen Holistic Veterinary Care,43.07505,-89.38894
8m95g2gR8BdW8IM8fEF9FQ,clinics,China Spring Acupuncture & Herbal Medicine,43.04987,-89.47567
DlQPmSbpgLIZGNWv3nhFPA,clinics,Dental Health Associates - University Clinic,43.0746919848155,-89.4350563261198
1IzU5xLyGG04SeuHIzpfYQ,clinics,Springtime Health and Wellness,43.0438766479492,-89.4737854003906
hnbOE_4A6UGTjJp3HHNC2A,clinics,Physicians for Women,43.01532,-89.42915
HG3vcNMtO9YO45HiD4wqqQ,clinics,Madison Endodontic Associates,43.032329,-89.42798
dur8HNYwa_ncWTz9meL7ag,clinics,UW Travel Clinic,43.07632169391497,-89.43189539015293
D9ck1wA8Mi4S82ZZJl_7aw,clinics,UW Health University Station Optical Shop,43.076333899247,-89.4386464169151
vyMPeRP7ICmXV4KChC09HQ,clinics,The Center for Periodontics and Dental Implants,43.09217,-89.49052
9y6jaNpdMI4L-hPLYkhfBg,clinics,UW Health at The American Center,43.155364,-89.301779
Uo2DxgZzbI1_1zJXtyBmng,clinics,The Joint Chiropractic,43.0487598,-89.5036827
D3xOOIS5sejSSZrIkqi3QQ,clinics,Spennetta Family Care Chiropractic Clinic,43.0507171,-89.5003424
9r6BwQPz6iSdNIjztyZwcQ,clinics,La Marie Beauty,43.07537,-89.38197
3YiGPQ4L0Ydy_Fh2GkZa6Q,clinics,Dental Health Associates  - Downtown Clinic,43.076366,-89.384566
odInwsyYJlTelH-X-L9Dvg,clinics,Madison's Family Wellness,43.069229,-89.451675
XhZdiznM1VNa6u6u7DlbuA,clinics,Launch Speech & Reading,43.0589299,-89.51907
ZiH14J7t8WnMPPHwHsfGOQ,clinics,UnityPoint Health - Meriter,43.06487,-89.40168
Lhkz3VGFu4Bt1kEx4YhFlQ,clinics,"UW Health Pediatric Allergy, Asthma & Immunology Clinics",43.067043,-89.401756
qCYmExTQQnWymiDdf3i3Jw,clinics,Wisconsin Integrative Hyperbaric Center,43.0130004882812,-89.4748840332031
0-GxJX2Qy1o1oz-BpocbJg,clinics,Madison Skin Specialists,43.0543461413626,-89.4888736147499
caorYo2PbF_dux_qoZ8K1Q,clinics,Capital Endodontics,43.08987,-89.526501
jyNbbVuekVIcxJbnReqAig,clinics,Tinnen Family Chiropractic,43.08417,-89.36356
6NqrExzsPyBGuB5oJygyKQ,clinics,Align Doula Services,43.066089630127,-89.4031524658203
ajtmx6-FDCihNmS05FLo8g,clinics,University Hills Dental,43.0752101,-89.4485684
mqnCX2fst5uQRH9IsM_ojw,clinics,Dean Clinic - East,43.0722389221191,-89.3078536987305
Hdp_N3M5qdyAe2fGKZ-VzQ,clinics,Midwest Spine And Nerve Center,43.081232,-89.5334996
ALcAnwlGmZcVE9icyra-4Q,clinics,HearingLife,43.05879,-89.51255
KPA3RD_gXOlWuFyJMruipQ,clinics,UW Health Union Corners Clinic,43.098522,-89.349769
n7rrFZR9mdsQnjOKBwuvPA,clinics,AMPT Specialty PT Clinics,43.06802,-89.3105999
9DBqnl5-0EH_hRa7-y4aiQ,clinics,Group Health Cooperative,43.0672873556614,-89.394578486681
Q6_TPnmF73fzt8pZ4-jZmw,clinics,"Daniel J DeJarlais, DDS",43.076065,-89.503201
g6CZBvc_9UZhH-UVxgs52g,clinics,Robertson Cosmetic Center,43.176504,-89.265454
YE8xL9_e9_4CA3pwZqapvw,clinics,Family Therapy Center of Madison,43.049045,-89.491477
CSbFIjr_zVmJZVrGDZPWJQ,clinics,Select Specialty Hospital-Madison,43.06572,-89.39944
6PUprRU5wMDcFw0pU6Ejvg,clinics,Red Sage Health,43.0842699,-89.36252
KUaaFFQ5ClCc2EJAHP7ZRQ,clinics,Smart Dental,43.1234817504883,-89.3504104614258
cIUC1ECioJQqOq9pIRyucw,clinics,Dr. Wang's Acupuncture Clinic,43.017286,-89.4285175
mVfFAYEd19v-C0gOcRQnRg,clinics,Dental Health Associates - West Gammon Clinic,43.07605857128279,-89.50320336648649
eAJuD7ZUfFuLVeiIjRByTQ,clinics,Madison College Therapeutic Massage Clinic,43.12179,-89.33202
rTFaH8XbBxPysa4GqvB4LQ,clinics,"Jean Piper Dental, DDS",43.069024,-89.453412
W_5X_ZaFMg-Bwk2idpHhwg,clinics,Bakke Chiropractic Clinic,43.191414,-89.445038
muhpQfszmRT28O-cPsnM4A,clinics,ANEU Med Spa,43.0141294,-89.2991665
GwnXjYHU2Vt0F6glxlJv3Q,clinics,Phitness Plus,43.037858,-89.378564
AyQ6uU5ntJE_1qEF5Hy-qQ,clinics,Affiliated Dentists,43.049669650213936,-89.47660688220894
IfXFqP5ER_sfU_TL_0nKAw,clinics,William S Middleton Memorial Veterans Hospital,43.0751368403435,-89.4310773164034
qoc4P4b3qOGWwCTr24505Q,clinics,Reveal Beauty Spa,43.192147,-89.449907
1_C87I86o8ou9jeWdEuhtg,clinics,Aberle Chiropractic Clinic,43.048555,-89.300697
kCwitOzEVXfTYnJ3QS0l8w,clinics,Mindful Motion Physical Therapy,43.07894,-89.37172
TdC4SvTB4uiL2x53ZRIRCA,clinics,Massage East,43.1219482421875,-89.3640670776367
e0XixtCEF9qTLPH4wFY4Pg,clinics,UW Health - Odana Atrium Clinic,43.0506699,-89.47793
vbolfZJk_2ut4mjmZw8oLw,clinics,SSM Health Davis Duehr Dean Eye Care,43.06732,-89.40327
BW62Tdh5qC35iCcJVa1BMg,clinics,Pregnancy Helpline Inc of Madison,43.0746765136719,-89.4588775634766
530NS7r50-Qi59X2jG82xA,clinics,Complete Family Dentistry,43.06617,-89.32671
hTeEouiPuF8QhcKRm-YsjA,clinics,The Joint Chiropractic,43.01525,-89.48237
UFxBealJ7NTLHDsotb7fBw,clinics,Blue River Chiropractic,43.06741,-89.52514
P-wKfHCLEgM2BnhqHVSsnw,clinics,UnityPoint Health - Meriter - DeForest-Windsor Clinic,43.1939188,-89.322526
FGBfG9i6nRxV2757ML9iDg,clinics,Madison Women's Health,43.054614,-89.478094
Dkdt43gRzfvkymPR9LaHHQ,clinics,BSP Free Clinic,43.1043243408203,-89.485954284668
XGs9hqtePoHPnVFgbejWVw,clinics,Dental Health Associates - Old Sauk Clinic,43.075652,-89.504074
LY2-Lbk0fUBUBQowLbFEPA,clinics,Affiliated Dentists SC,43.046482524310655,-89.32667622455409
jyyk8qQ9Do9ITKsU3fqIdw,clinics,Artisan Dental,43.081127,-89.375606
Y6h_hzCkuuhpQFhHzsX_Rg,clinics,Body & Spine Chiropractic Wellness Center,43.0107573137696,-89.4591565263366
EE1_MiqpG5kt9SPVmHiecQ,clinics,Genesis Chiropractic Center,43.0898042,-89.526506
QpDdv1SBudkBr5BlQw10Og,clinics,Capital Endodontics,43.1313515,-89.2909927
GRfuk9Sk7dYV-XKjtcxAoA,clinics,Madison Acupuncture and Wellness Design,43.07309,-89.43338
Au8UtIwEYT2D1VINLssBBg,clinics,CI Pediatric Therapy Centers,43.01525,-89.42751
3JDBw5fyWaSMhJv626wrMQ,clinics,Drug & Alcohol Testing 24/7,43.0476652962774,-89.341815
lY5fZho4VgV3q1s8z44tcA,clinics,Madison Chiropractic,43.1224213,-89.3633575
5HSR0nrwCzx-DoHlUMvt4Q,clinics,Labcorp,43.1258049586943,-89.3325268895281
Llw0CycHRWkw71Ihe4kD6g,clinics,Associated Dentists,43.0761317870049,-89.4679638779312
pA2zocdv6vmYYz8CvsVqwg,clinics,Ymassage Bodywork & Natural Fitness,43.0149407,-89.4550922
50Fd7voz6qdtsnZ8f0fjvQ,clinics,UW Health - Digestive Health Center,43.0768715,-89.4692377
md5CPs1XmZeVuDd-yKbiUw,clinics,UW Hospitals and Clinics Plastic Surgery Clinic,43.076866,-89.43177
FDmFQ6AzLDzzfAGO480hXA,clinics,DexaFit,43.0679,-89.524644
7rNb9wky2Zhk2Upl1wlIrg,clinics,Renewed Life Chiropractic,43.0756062,-89.4422788
quDJejS81zZM3Vmvyz8fBQ,clinics,Isthmus Eye Care - Madison,43.085377020081,-89.2776274633952
Ig6w8dtb7SSofNcrupldZw,clinics,Midwest Open MRI,43.08949,-89.52522
TxRCM70_pwMDb3lJ-PK4aQ,clinics,Fitchburg Dental Clinic,43.02482,-89.41439
MWYLtiPNzls_WGLiJ9oh2g,clinics,Function & Form Therapeutic Massage & Movement LLC,43.0745392,-89.4435577
-s0hj4sFpC6HEdtiMjVAIA,clinics,"Emmerich Chiropractic Clinic, SC",43.0571823120117,-89.4929504394531
lItCOQXGBHFLaZzbAlCQzQ,clinics,Radiance Skin Therapy & Laser Center,43.0344781,-89.4210551
1_xnYclNcsbLRawzQIrS8w,clinics,Acupuncture Arts Center for Health,43.05468,-89.48909
wVUBEno1Q-ZGtX8y-WhvCQ,clinics,Dane County Family Acupuncture,43.0470195,-89.3260347
V0JFpJQ2hxi_cmBumjnRcA,clinics,Evolution Body Transformation,43.047691,-89.341999
NpASSXpxMPTkFLyCQ9Q_Kw,clinics,Dental Health Associates of Madison - Fitchburg,43.016714,-89.43248
R1hGtFDSTgNSQ4pbX6qSng,clinics,Dean West Clinic,43.0770416,-89.5199966
oXnAl8cSGKvpCJW4aa9LTQ,clinics,Aesthetica Skin Health Center,43.09849,-89.51942
WkZOkkZBHV6CfPhLKyNXtg,clinics,Anderson & Shapiro Eye Care,43.0739037422727,-89.5117950439453
HRHaHCQ9UQWtHFAeXTo1WQ,clinics,Concentra,43.1198196,-89.324028
yTJj9oTLWyHtszCuzuTkjA,clinics,Madison Family Dental Associates,43.0504,-89.48044
M2mvfy0WYQRyJBZEIpKi9w,clinics,Ryan Brothers Ambulance Service,43.05758,-89.39988
zHB2cxr6yW-CYKrfEIyi6Q,clinics,Holistic Life Chiropractic,43.09934,-89.51828
U1-OyVwmY3Z8AaMr7Jh78g,clinics,UW Health - Sun Prairie Clinic,43.186453,-89.265961
maEcoIFowGaY5xCnToGg2A,clinics,Marriage & Family Solutions,43.0589102,-89.5190241
2w9TNxnKbT6k4Eh_fExvKA,clinics,Zelm Chiropractic Center,43.017966,-89.2984584
WMZq37GTuDgxZQ4M0ufNEA,clinics,Center for Oral Maxillofacial Surgery and Dental Implants,43.15117,-89.292822
ds5vaAyObCl7DVs0qrLIHQ,clinics,QuickFix After Hours Chiropractic Clinic,43.01383,-89.29304
cx2Yla0yZS1RZQs-oWHJEg,clinics,Wilson John D MD,43.05927,-89.40151
r4RBO20cL8Q-4fKo-kjLLg,clinics,Total Care Dental,43.053863,-89.489196
3CdHHfdF2kG7HU5wUcbhDg,clinics,LSM Chiropractic of Middleton,43.0971456,-89.498241
3QGH9DF01kvSJBqGL5YA2Q,clinics,Back & Neck Wellness Center,43.099277,-89.311264
apd2-HPY6DvuFcAfQjtcbw,clinics,Monroe Street Family Dental,43.0571327209473,-89.4294509887695
yQ5J9dX8w6k74BqNlzmYqw,clinics,"Mental Health Solutions, SC",43.0595703125,-89.5158462524414
zs_YKgwh5YAie6TXZgYP9Q,clinics,Steinhauer Family Eye Clinic,43.074803,-89.436265
ylDv7nEgpzTTqecYDOTEVA,clinics,Isthmus Wellness,43.07209,-89.52393
EZi3fh5odOR0i27FbH_iKg,clinics,Unfurl & Laura Novak Massage,43.07449,-89.44299
p3mhi3IWiXFIrc_CYmJmeA,clinics,Familia Dental Madison East,43.1036061095972,-89.3422471833218
2WDI4NW_MEBXF8ymW0oa9A,clinics,Miller Kim J Dr,43.06135,-89.50582
zlJEbuyXtVZ2NqdEKsTD1g,clinics,UW Health 1 S Park Clinic,43.0671051,-89.4015877
L67sYAdXou9Rn6x9WU08bw,clinics,Psychiatric Services,43.0748954,-89.4367094
no7RwVM1iWEWwF9H1h-1eg,clinics,Stork Vision Madison,43.102934,-89.317939
ATTNwlg-bWb9z46QkqIgMQ,clinics,Su's Clinic,43.097305,-89.499008
hT9EBrf3se1zUSA9aDPlag,clinics,East Grove Dental,43.08475,-89.30784
584DHSXz3ByrBC7KTx3f-w,clinics,Healthy Woman,43.0601,-89.51481
n9LStlEoN-4LIX-HNJWa5g,clinics,Internal Medicine & Pain Clinic,43.038337,-89.451881
YoWO-Siw5O1aONe1B2U1qQ,clinics,Warren Family Dental,43.0991058349609,-89.3108215332031
Sx1-YH9xEPYkoSGnMvi5WQ,clinics,"David Emmerich, OD",43.0570899,-89.5093181
tBOrqJzf46ZdZKjRMTDskw,clinics,First Choice Dental,43.06042,-89.4004099
6_vw5ceVt1CqrrJCNToh9A,clinics,Sokol Advanced EyeCare,43.058228,-89.504749
uF9i9aykU-rA6d5FYMIJkw,clinics,Dean Health System - Waunakee Clinic,43.1743592426718,-89.4612608014623
fBFVGJ6bS7IX6EoA3UcDGA,clinics,Forgiveness Recovery,43.03215,-89.50216
R1dt3El_U0NAx1EUM1U04w,clinics,Elite Chiropractic,43.1662249,-89.2697103
UQ47cj0J676ObjlZSQx9VQ,clinics,"Donald W Johnson, DDS",43.0168356746435,-89.431959092617
9p4pcl-VxqiNLBCuGJOPYQ,clinics,LSM Chiropractic of Fitchburg,43.0132455,-89.4273453
AseAvrgRW-2ticUHWzOcFg,clinics,Dental Health Associates - East Clinic,43.09945,-89.31225
FNM2NbKnK9MuPUluoCrWOg,clinics,Madison Psychiatric Associates,43.0486831665039,-89.4762191772461
JTOxJsmZiIjAbwRmioNtvg,clinics,Isthmus Eye Care - Downtown,43.07048,-89.38933
GKuNJeScDlDPXAdegZl8rw,clinics,Noble Choice Chiropractic,43.1885999,-89.2778614
V4qoquAZ3pw-lOc-gK2Yjw,clinics,Total Body Laser & Med Spa,43.047595,-89.477468
eEnTbc-h59Q4okgMTBbXcw,clinics,Elements Massage - Fitchburg,43.01530999811722,-89.4815290234513
QaLkEAsqa_qztAi4XZ616g,clinics,Derma 180 Skin Renewal Center,43.060193,-89.502175
gL0GOZ3ZMgTFHrwb3w8bKw,clinics,Children's Dental Center Of Madison,43.1516209,-89.2868222
KzVN3b1wMMiRleGdBU6j3Q,clinics,Children's Dental Center of Madison,43.005313873291,-89.4269485473633
FX80oadnhwS1Vbw8WJkTCA,clinics,"Eric Duits, DDS - Children's Dental Center",43.005313873291,-89.4269485473633
99kIc72oATFtN5WJxHH_Dw,clinics,UW Health Research Park Cardiovascular Medicine Clinic,43.054365,-89.469692
7o1rol_fqsrU0_cphG7uGQ,clinics,Lincare,43.0656980262369,-89.3082038893155
FZbnKt81doGcpME0LZr2iA,clinics,SSM Health Davis Duehr Dean Eye Care,43.1827354,-89.4617897
opqv6xpm0KSkZo834FF5ng,clinics,"Lisa A Young, DDS",43.07730961063231,-89.52540663518666
haNK_nOgwc5NGsbFPf2E4A,clinics,Midwest Dental - Madison,43.07559403502472,-89.44213460224856
sJObNe2Oa4eJBjPTRJEgjA,clinics,Olson Eye Care,43.0546102,-89.5228008
nJKEHfaN5RfAvWfH3YbmcQ,clinics,LSM Chiropractic of Madison East,43.109164,-89.335099
XOBS2s6pgzeIqeGyjhS5fA,clinics,"Wildwood Family Clinic, SC",43.08376,-89.29679
8H6OUsULF9jqZNNLfobSDw,clinics,UnityPoint Health - Meriter - McKee Clinic,43.0168724060059,-89.5277481079102
vdj-Mmd0UiMIFLXggj2Cxg,clinics,Bright Dental,43.06138,-89.51862
_eXvlb7nQOfdIS9eb1t1gw,clinics,First Choice Dental,43.1032131322782,-89.3194927055514
KUIFtCrNwJDT4gdtqd7dpQ,clinics,Bilancio Eyewear,43.0050542570996,-89.4209827771767
wG5ulFgaYHKmgy35u9frYw,clinics,Madison Smile Solutions,43.050213,-89.476673
b1PQ3XHNZLqCLEsPttCH7Q,clinics,Pearle Vision,43.015259,-89.47716
TZNPdH_BTw9pSONkwY99Og,clinics,Stacey Dental,43.0853791528819,-89.2816688381896
KlMMQJaQ1DW3wvY2mNWhwg,clinics,Bre Chiropractic,43.051456,-89.502609
CXEFnMkU31uVEYSmY1Cziw,clinics,UW Health Deming Way Eye Clinic,43.10015,-89.5173
ikAuDJ5Gu0GPvOAm8OrcTQ,clinics,Isthmus Eye Care - Middleton,43.0965438,-89.5131841
YQ3MYXj-oJw3TE52SItbMA,clinics,Andler Dental,43.0755996704102,-89.5335159301758
-5OGnkKlP5nECa5rp6E1gg,clinics,Madison No Fear Dentistry,43.0611,-89.49248
XXUI2uPEwd0WldBCZmgErw,clinics,Arc of Life Chiropractic,43.050769,-89.503887
-aOWo8pvtoBIVcFxRSLflw,clinics,HarmonyVet Acupuncture and Spine Care,43.070899,-89.325264
5hCx97PDmitbxdpOPI6j4A,clinics,UW Health - Verona Clinic,42.9882583618164,-89.5482482910156
KGuGZnwOAakhUKvu5-rcVg,clinics,Killian Dental Clinic,43.1027984619141,-89.4878768920898
aRRidPb-pc6ohSsFJzIBjw,clinics,Transformations,43.100154876709,-89.5172958374023
P46wBAVeVn74AoMYoZrjIA,clinics,UnityPoint Health - Meriter - Fitchburg Clinic,43.00072,-89.42487
OKVX87PfBvtO83raV8GmgA,clinics,Verona Vision Care,42.9870296269655,-89.5334699749947
ukKQOpmpZ3JNDCmEUzbrIQ,clinics,Paras Chiropractic,43.0961834,-89.5143333
lNFn72JQMpqXTxNPXCi40w,clinics,First Choice Dental,43.1730815,-89.4604122
Dp-WcXAtglYi58Nm2DbozQ,clinics,Wisconsin Sleep,43.05446,-89.48371
JscndbZ9TUej93Ns1p0yLg,clinics,Massage Envy - Middleton,43.097524675184,-89.524364
dfWMsErHR1ZfL-k_6DN0yQ,clinics,First Choice Dental,43.01438,-89.45508
xk6f1JfM3FkS5r2I7oO6pw,clinics,Greenway Family Dental,43.0897965409174,-89.525464
o_ok9vylne98iFelOXzuYA,clinics,Moen Deborah Y Lcsw,43.0722389221191,-89.3078536987305
abuCxWNiR3f-Ax2SgCV_9w,clinics,Ideal Image Madison,43.0919991,-89.5269775
5rSzd-agUs2p0AE8eh8-hQ,clinics,Madison Orthodontic Centers,43.05196,-89.32578
PU46SUyz_juHjTODHur7bw,clinics,UnityPoint Health - Meriter - Monona Clinic,43.0494,-89.309429
9BPPkepL39CSzWICr0Ul4A,clinics,Middleton Village,43.088994,-89.493606
QXA3A98cch3Kf0jJT3QDDQ,clinics,Shopko Optical,43.059651,-89.502291
p36XSjsfgvEYE_lZHU4nrg,clinics,Aspen Dental,43.129491,-89.3071034
k-1SoHVjdZj3IfYEj2Gv-w,clinics,LSM Chiropractic of Sun Prairie,43.177761,-89.2407775
SsGrjdk9kXn6Yib64vMh5Q,clinics,First Choice Dental,43.06215,-89.52795
R1Cfbey_YCio_P5Gp8tgfg,clinics,First Choice Dental,43.17751,-89.26423
vzMpM4Z08emYmjo4bHeS0Q,clinics,Ketamine Milwaukee,43.035069,-88.043133
wM8H674dNQfOwLSlwvEMVA,clinics,Pro Health Chiropractic,43.1769872,-89.2432175
h6bpV_bXiU9GWtg1pxisWg,clinics,UW Health West Clinic,43.0693,-89.52371
s0Zabj6qjRuuKLYLp-Jrhg,clinics,Group Health Cooperative,43.1447487,-89.2895966
OF7gGupu4Yol6SAJCE83yg,clinics,Target Optical,43.062287,-89.524431
jyyk8qQ9Do9ITKsU3fqIdw,dentists,Artisan Dental,43.081127,-89.375606
apd2-HPY6DvuFcAfQjtcbw,dentists,Monroe Street Family Dental,43.0571327209473,-89.4294509887695
Llw0CycHRWkw71Ihe4kD6g,dentists,Associated Dentists,43.0761317870049,-89.4679638779312
jqXX6SWhYAMDRuGw2zci9A,dentists,Dentistry for Madison,43.07071,-89.38894
M86NwJ1t8U4Iahr6KHFCWw,dentists,Middleton Family Dental,43.09744,-89.4966
KUaaFFQ5ClCc2EJAHP7ZRQ,dentists,Smart Dental,43.1234817504883,-89.3504104614258
DlQPmSbpgLIZGNWv3nhFPA,dentists,Dental Health Associates - University Clinic,43.0746919848155,-89.4350563261198
qHWXWuCm3zOP3of1o_PULg,dentists,Verona Family Dental,42.987345,-89.5333901
r4RBO20cL8Q-4fKo-kjLLg,dentists,Total Care Dental,43.053863,-89.489196
NpASSXpxMPTkFLyCQ9Q_Kw,dentists,Dental Health Associates of Madison - Fitchburg,43.016714,-89.43248
IPnTbQ3Q4r1X14KX3pdfSA,dentists,Monona Dental,43.0456958,-89.3266937
ajtmx6-FDCihNmS05FLo8g,dentists,University Hills Dental,43.0752101,-89.4485684
hCN5OfXCdt_q1CnPTzcmIA,dentists,Mendota Springs Dentistry,43.0153881,-89.4824312
-5OGnkKlP5nECa5rp6E1gg,dentists,Madison No Fear Dentistry,43.0611,-89.49248
SkMHTrR-qn-6qNalTpu1MQ,dentists,Oak Park Dental,43.0601465,-89.5149309
CS8WfgOIOGlrmCMEDJdl1A,dentists,First Choice Dental,43.06796,-89.40371
yTJj9oTLWyHtszCuzuTkjA,dentists,Madison Family Dental Associates,43.0504,-89.48044
w5dtvNsbnR1KJbHdH8Ha8g,dentists,Capitol Square Dental,43.075508,-89.382177
KGuGZnwOAakhUKvu5-rcVg,dentists,Killian Dental Clinic,43.1027984619141,-89.4878768920898
C8PNX4RrH5aAbp5x22ka_Q,dentists,University Square Dental Associates,43.07538,-89.3970499
a_cVj7SKmAvkdod02Xjymw,dentists,"JoAnn Martens, DDS",43.180447,-89.427244
8v2fiH5QjK1rvz6Ry_BnGw,dentists,First Choice Dental,43.0905908,-89.3612337
rTFaH8XbBxPysa4GqvB4LQ,dentists,"Jean Piper Dental, DDS",43.069024,-89.453412
mVfFAYEd19v-C0gOcRQnRg,dentists,Dental Health Associates - West Gammon Clinic,43.07605857128279,-89.50320336648649
AseAvrgRW-2ticUHWzOcFg,dentists,Dental Health Associates - East Clinic,43.09945,-89.31225
6Cu9oPEex7gF50OkQa32cw,dentists,Great Day Dental,43.047675,-89.3414
530NS7r50-Qi59X2jG82xA,dentists,Complete Family Dentistry,43.06617,-89.32671
L7aIt69YmlMYy-uPZppMeQ,dentists,Byce & Worman Family Dentistry,43.0537468,-89.5199636
AyQ6uU5ntJE_1qEF5Hy-qQ,dentists,Affiliated Dentists,43.049669650213936,-89.47660688220894
O-FUNzb_vnWpnoI9XNCR7Q,dentists,"David Besley, DDS",42.9908195,-89.5324736
htJKVVM2CBCk59BYLrACRQ,dentists,Associated Dentists,43.00208,-89.53292
C0ClfvaQDY7MuMZ9XmiUHQ,dentists,Midwest Dental,43.177634,-89.446521
9uwZwhZG4U655n7w8NG02g,dentists,Four Lakes Family Dental,43.0849223,-89.2776278
SEshrcK_VFzRZB2enhv7uQ,dentists,Token Creek Dental Center,43.188613,-89.277801
Jrdub8jLqjzLQDFLc1lj2A,dentists,Isthmus Dental,43.07836,-89.38538
n8MCpGNogG7UBjnvMmeElw,dentists,Excellence In Dentistry,43.11067,-89.36348
Muvwt84VKxJtcCAfhyB0jQ,dentists,Maple Grove Dental,43.0146367,-89.4983786
8cEu1e1xjqS67Cppf0bi5w,dentists,ForwardDental Sun Prairie,43.1849372,-89.2640092
xk6f1JfM3FkS5r2I7oO6pw,dentists,Greenway Family Dental,43.0897965409174,-89.525464
lNFn72JQMpqXTxNPXCi40w,dentists,First Choice Dental,43.1730815,-89.4604122
ufJvmiT7LfWeuzHeTermiA,dentists,Door Creek Dental,43.0853157043457,-89.2675018310547
udf0VibWPUJJMrtsGeFL-A,dentists,McFarland Family Dental,43.0173683166504,-89.2988204956055
nzKybunOi11Dyo56_c1fiQ,dentists,Riverplace Dental,43.0455293,-89.3253035
eA1_5RSzuT3OSvN-zzmxXQ,dentists,Midwest Dental - Fitchburg,43.0163177,-89.4280224
WF3xNJAJewFciX4OYUchEA,dentists,Prairie Lakes Dental,43.1690213,-89.2683012
aq3ct8I17yNVmoXwBg3pQA,dentists,Waunakee Family Dentistry,43.180454,-89.411613
8qCpn2iJ_SqBNRce1KHYRQ,dentists,Family Dental Care of Fitchburg,43.0191231,-89.42013
EbfFHB2sSYUFPm1ovoKLiA,dentists,Westside Dental,43.1792449951172,-89.2376937866211
gGCCLxKWDdglVFdq29oi-Q,dentists,Radiant Smile Dentistry,43.084596,-89.300446
J0HYl23WJ_MmrxSgu4PsOw,dentists,"Michael Kosovec, MD",43.0917892,-89.3535385
lYWdjL56ubXSNPC2R41Olw,dentists,West Prairie Dental,43.18545,-89.267365
3YiGPQ4L0Ydy_Fh2GkZa6Q,dentists,Dental Health Associates  - Downtown Clinic,43.076366,-89.384566
zvklSpJPL7YpLNL4WHLQEg,dentists,Distinctive Dentistry,43.0899353,-89.5265808
TebP_MbMtoLx8jbYa5nkMQ,dentists,First Choice Dental,43.0013618469238,-89.5332260131836
1cCh0fuVULWtWhJPr95jIw,dentists,Midwest Dental - Madison,43.1380348205566,-89.299201965332
XGs9hqtePoHPnVFgbejWVw,dentists,Dental Health Associates - Old Sauk Clinic,43.075652,-89.504074
R1Cfbey_YCio_P5Gp8tgfg,dentists,First Choice Dental,43.17751,-89.26423
lyPvWWcJzuuj30ro4BZ35A,dentists,Hartstone Dental,43.0829012,-89.5020757
haNK_nOgwc5NGsbFPf2E4A,dentists,Midwest Dental - Madison,43.07559403502472,-89.44213460224856
FziyOM8E1WbOol6Hv5cUrg,dentists,West University Family Dentistry,43.09217,-89.49052
LY2-Lbk0fUBUBQowLbFEPA,dentists,Affiliated Dentists SC,43.046482524310655,-89.32667622455409
hT9EBrf3se1zUSA9aDPlag,dentists,East Grove Dental,43.08475,-89.30784
SkRqx-hxVPLgV4K5hxNa9g,dentists,"Parkview Dental Associates, SC",43.18771,-89.25381
wG5ulFgaYHKmgy35u9frYw,dentists,Madison Smile Solutions,43.050213,-89.476673
p3mhi3IWiXFIrc_CYmJmeA,dentists,Familia Dental Madison East,43.1036061095972,-89.3422471833218
pfxinwkc8uAZHDK8YcNOCw,dentists,Advanced Dental Specialists - Madison,43.048061,-89.478584
HFV6kaqJgjnQyq8w9lIvHw,dentists,Foxridge Dental,43.11528,-89.52492
p36XSjsfgvEYE_lZHU4nrg,dentists,Aspen Dental,43.129491,-89.3071034
TxRCM70_pwMDb3lJ-PK4aQ,dentists,Fitchburg Dental Clinic,43.02482,-89.41439
iL8w4ADdzu-A0Juu_PsAQQ,dentists,"Dr. Lubet & Associates, S.C.",43.0966492,-89.4972534
tBOrqJzf46ZdZKjRMTDskw,dentists,First Choice Dental,43.06042,-89.4004099
dfWMsErHR1ZfL-k_6DN0yQ,dentists,First Choice Dental,43.01438,-89.45508
FmOkHVqfuJuxTaRYYZy57g,dentists,First Choice Dental,43.0963142309383,-89.5152478844624
whws3JxIZktm1HWRtgtRqw,dentists,Madison Oral & Maxillofacial Surgeons,43.045612,-89.327738
P9g3r2u4bBPZgxaxZedqIQ,dentists,"Amy E Kramer, DDS",43.0760354,-89.5033354
tKeFm2_VhoYfUk5_b0bHTw,dentists,West University Family Dentistry,43.09217,-89.49052
ZmQNOiwSLnoO_oGpYBE4LA,dentists,Eastpark Dental,43.1447868347168,-89.2948608398438
ySLUULgRhrFTlQ7jNIN-ew,dentists,"Amy Sergeant, DDS",43.1106796264648,-89.3634643554688
OnQxF8wfavDXWtmUJhagPQ,dentists,Madison Middleton Children's Dental Office,43.0829159170389,-89.5022041350603
SsGrjdk9kXn6Yib64vMh5Q,dentists,First Choice Dental,43.06215,-89.52795
O8BFWmBUJVyLIKqFjDYAJg,dentists,Madison Oral Surgery & Dental Implants,43.0454287677685,-89.3253019636477
asnPKM_f8wssTUqs7ccQhQ,dentists,"Fred Jaeger, DDS",43.068733215332,-89.4525146484375
YQ3MYXj-oJw3TE52SItbMA,dentists,Andler Dental,43.0755996704102,-89.5335159301758
BCsKXlkSaHbja58DE5xzwA,dentists,608 Family Dental,43.178328,-89.238175
TmlWE_QsX2GFa5QqCeCZRw,dentists,West Madison Dental,43.04929,-89.4772
YoWO-Siw5O1aONe1B2U1qQ,dentists,Warren Family Dental,43.0991058349609,-89.3108215332031
CJb3yL403vuUk6bES2tjCA,dentists,Nakoma Dental,43.03858,-89.45031
YIna6xZKmDHFhCf-xtVS7Q,dentists,Madsen & Hirsch Dental Care,43.0703378,-89.4516021
NM9bHlBOZV0o8G3s6QN1Lw,dentists,Madison Pediatric Dental & Orthodontics,43.04648959083984,-89.32644504968093
Uv9yp9ABb0HEyoApIP2iqg,dentists,Jennifer Bergstrom  DDS,43.0185679973071,-89.4222072511911
F0vrI5r9DoN_NJYVpo1QzQ,dentists,Dentistry West,43.071566,-89.524563
6QkNffcroDda8oFE1mQtJw,dentists,Endodontic Specialists of Madison,43.07034,-89.45163
gxr4EQjEgohrCNSUHeLLuQ,dentists,Madison Oral Surgery & Dental Implants,43.032274671674,-89.4280058544922
20Kr5nZaEl4Borj__eowuA,dentists,"Stuart J McCormick, DDS",43.04929,-89.4772
A55M877xi-44fwoXcUzEZg,dentists,"James H Sands, DDS",43.00208,-89.53292
vyMPeRP7ICmXV4KChC09HQ,dentists,The Center for Periodontics and Dental Implants,43.09217,-89.49052
vdj-Mmd0UiMIFLXggj2Cxg,dentists,Bright Dental,43.06138,-89.51862
mqnCX2fst5uQRH9IsM_ojw,dentists,Dean Clinic - East,43.0722389221191,-89.3078536987305
_eXvlb7nQOfdIS9eb1t1gw,dentists,First Choice Dental,43.1032131322782,-89.3194927055514
TZNPdH_BTw9pSONkwY99Og,dentists,Stacey Dental,43.0853791528819,-89.2816688381896
4amJrYd14pT4y6ySKwRUqA,dentists,"Robert J Carpenter, DDS",43.17817,-89.2382
eDXnLav22-Dap_X3T5YrUQ,dentists,Tepe Patrick DDS Ofc,43.00208,-89.53292
YXfNhMgMOZAgPdyUvPq3tQ,dentists,"Kathryn Giswold, DDS",43.0456084012985,-89.3249919265509
HG3vcNMtO9YO45HiD4wqqQ,dentists,Madison Endodontic Associates,43.032329,-89.42798
I6-8Oz22G5cAGYK2d0_S_g,dentists,Warda Geoffrey R,43.067239,-89.401829
nBDc49YLTru7u5Oh7_CS1A,dentists,Greater Madison Orthodontics,43.0485801696777,-89.4751281738281
opqv6xpm0KSkZo834FF5ng,dentists,"Lisa A Young, DDS",43.07730961063231,-89.52540663518666
axqQQfHpjm57_3XYdSJmFA,dentists,ForwardDental Madison - East,43.12195,-89.31287
WMZq37GTuDgxZQ4M0ufNEA,dentists,Center for Oral Maxillofacial Surgery and Dental Implants,43.15117,-89.292822
caorYo2PbF_dux_qoZ8K1Q,dentists,Capital Endodontics,43.08987,-89.526501
HQ4dan9p8O8j84n0xDL7-Q,dentists,"Donald W Tipple, DDS",43.039778041213815,-89.44951964462528
hH8w2gr9oAxlRyn4TuZkmg,dentists,"Cecelia Thompson, DDS",43.151481628418,-89.2868194580078
sQpZBHNZo5WnwCXErCKrMA,dentists,Prosthetic Dental Associates of Madison,43.06021,-89.47061
QpDdv1SBudkBr5BlQw10Og,dentists,Capital Endodontics,43.1313515,-89.2909927
5rSzd-agUs2p0AE8eh8-hQ,dentists,Madison Orthodontic Centers,43.05196,-89.32578
nBKbQgozT-J0KTW7MoV6Pw,dentists,Midwest Dental - Madison,43.0613822937012,-89.473030090332
szi8IVC3l4kpbK1_CBSqAA,dentists,Prairie Grove Orthodontics,43.0838088989258,-89.2985916137695
ZlUi2hKhU9EuhGGqVIulNg,dentists,"Joseph Cristoforo, DDS - Dental Implant and Periodontal Speciali",43.06036,-89.49515
Q6_TPnmF73fzt8pZ4-jZmw,dentists,"Daniel J DeJarlais, DDS",43.076065,-89.503201
um3PsnS4R1BzcQL9Od6Bsw,dentists,"Donald J Loomis, DDS MAGD",43.0841955,-89.2994745
PKJauQ2_NrQQVRj7qDtbgw,dentists,Wilson Douglas W,43.0465278625488,-89.3266220092773
UQ47cj0J676ObjlZSQx9VQ,dentists,"Donald W Johnson, DDS",43.0168356746435,-89.431959092617
KzVN3b1wMMiRleGdBU6j3Q,dentists,Children's Dental Center of Madison,43.005313873291,-89.4269485473633
-EJZRlgLXORMaR_8XMRH2w,dentists,Center for Oral Maxillofacial Surgery and Dental Implants,43.07548,-89.503099
DgwjHs22Os7X3C2IFYmh0w,dentists,Midwest Dental Madison,43.0655117332935,-89.5028961449862
Sh8hO16ygr6_0AfGJiEt0A,dentists,Orthodontic Specialists of Madison,43.00222,-89.532862
gL0GOZ3ZMgTFHrwb3w8bKw,dentists,Children's Dental Center Of Madison,43.1516209,-89.2868222
FX80oadnhwS1Vbw8WJkTCA,dentists,"Eric Duits, DDS - Children's Dental Center",43.005313873291,-89.4269485473633
ta2ItXFxvIpWky0GoF02Zg,dentists,ForwardDental Madison - West,43.0602,-89.46839
VV5d-KHMCIaLvoc1e78hPA,dentists,"Aditi Kumar, DDS -  Family Dental Care of Fitchburg",43.01924,-89.42048
JULVIH20gLnxhpa4sl50IQ,dentists,Orthodontic Specialists of Madison,43.13502,-89.37212
gHD5Ab71PIm_zdR_7aKLaA,dentists,Orthodontic Specialists of Madison,43.06419,-89.50394
jS5YXM8kMEjJzyTK-5w4ew,dentists,"Anthony Hernandez, DDS",43.151481628418,-89.2868194580078
LVFmFBtCrNCxoXMwm32OKQ,dentists,Children's Dental Center of Madison,43.076065,-89.503187
BkPOsOdbltr_Ky2V3oPR3g,dentists,Dr Jim Shipley,43.0899353,-89.5265808
9wrsxi6bZaUb8DSjdnUWZA,dentists,Advanced Orthodontics of Wisconsin,43.04969,-89.47747
HhQYcATMJyDSljHXxxNxmw,dentists,Madison Endodontic Associates,43.0824737548828,-89.3241119384766
mfS-jZX0NnTQTYAdLmAsYA,dentists,Judd Leland Dentist,43.1877059936523,-89.2538146972656
EgbNyhmuunbUARu0du2vDA,dentists,Madison Dentistry,43.08949,-89.52522
CJtEj9qFiJkFUfFKl-V2TQ,dentists,Chris Stevens Dr,43.1970699,-89.26203
GA4RY9nTalb7Jk4lGmnPxw,dentists,Affordable Dentures,43.0557487,-89.4947738
WrGYbxma7l3-qzP6-ZhgmQ,hospitals,UW Health University Hospital,43.0765637419531,-89.4310555904652
JubiY4ZOhaOwgcC1O0U67g,hospitals,St. Mary's Hospital,43.058863,-89.403095
ZiH14J7t8WnMPPHwHsfGOQ,hospitals,UnityPoint Health - Meriter,43.06487,-89.40168
9y6jaNpdMI4L-hPLYkhfBg,hospitals,UW Health at The American Center,43.155364,-89.301779
pIpsM_fVTnwCw7NZSkYkuA,hospitals,UW Health University Station Clinic,43.0768547058105,-89.4379730224609
P-wKfHCLEgM2BnhqHVSsnw,hospitals,UnityPoint Health - Meriter - DeForest-Windsor Clinic,43.1939188,-89.322526
zAlCmfZZ70KmcESasGmwUQ,hospitals,UW Health,43.1961074,-89.3311916
CXbki4QQRAu2d6SHElJxQA,hospitals,American Family Children's Hospital,43.0778,-89.43333
IfXFqP5ER_sfU_TL_0nKAw,hospitals,William S Middleton Memorial Veterans Hospital,43.0751368403435,-89.4310773164034
LNSccltLqFZPC-HhfiKsXQ,hospitals,St Marys Sun Prairie Emergency Center,43.158626,-89.268693
AvYINejPpaephWjXKVAZvg,hospitals,UnityPoint Health - Meriter Foundation,43.0653235821555,-89.401556252858
CSbFIjr_zVmJZVrGDZPWJQ,hospitals,Select Specialty Hospital-Madison,43.06572,-89.39944
8aPGbsyxQggyKzYH2n6VBw,hospitals,UW Carbone Cancer Center,43.076776,-89.431095
XOpQoio5U-jky2bSZ0mD2A,hospitals,West Washington Clinic,43.071396,-89.387941
lZA872NateEAEOy0N7CDxQ,hospitals,UW Health West Clinic,43.0703214,-89.5234419
zFqGxm2oIN1HCegD28wgPw,hospitals,UW Health - Fitchburg Clinic,43.0046403688481,-89.4269720059695
md5CPs1XmZeVuDd-yKbiUw,hospitals,UW Hospitals and Clinics Plastic Surgery Clinic,43.076866,-89.43177
1gHz0sBZKYq_RDUShU_PeQ,hospitals,St Marys Hospital Medical Center,43.02961,-89.40755
BtQhEE-ffib13I7Niu5Vvg,hospitals,UW Health,43.067102,-89.40159
e0XixtCEF9qTLPH4wFY4Pg,hospitals,UW Health - Odana Atrium Clinic,43.0506699,-89.47793
RqpHJEkjCNnz34GgkJ8kaQ,hospitals,Veterans Hospital Wm S Middleton Memorial,43.074576,-89.431322
p0IIlqLGdYpwHC5CWWbzzA,hospitals,Generations Fertility Care - UW Health,43.100767,-89.518437
DNYWqHA7fcWK-gKWOZUlOw,hospitals,St Marys Care Center,43.0113,-89.49735
U1-OyVwmY3Z8AaMr7Jh78g,hospitals,UW Health - Sun Prairie Clinic,43.186453,-89.265961
DTNP4hCNSnOlSppDJZBabg,hospitals,UW Health Madison Eye Associates,43.06842,-89.39851
zlJEbuyXtVZ2NqdEKsTD1g,hospitals,UW Health 1 S Park Clinic,43.0671051,-89.4015877
dkvYP1rpIebxJ2zOmpW2xA,hospitals,UW Health Monona Clinic,43.0480539053679,-89.3139593303204
KPA3RD_gXOlWuFyJMruipQ,hospitals,UW Health Union Corners Clinic,43.098522,-89.349769
PU46SUyz_juHjTODHur7bw,hospitals,UnityPoint Health - Meriter - Monona Clinic,43.0494,-89.309429
5hCx97PDmitbxdpOPI6j4A,hospitals,UW Health - Verona Clinic,42.9882583618164,-89.5482482910156
lqMQXKjjDGyI02nbYRv4rg,hospitals,UnityPoint Health - Meriter - Center for Perinatal Care,43.065418,-89.401695
FGBfG9i6nRxV2757ML9iDg,hospitals,Madison Women's Health,43.054614,-89.478094
5cVYglfPBIwnYioQjMptrg,hospitals,"Gutowski Karol, MD",43.0760612,-89.4292145
9DBqnl5-0EH_hRa7-y4aiQ,hospitals,Group Health Cooperative,43.0672873556614,-89.394578486681
wQcZXF5lUSvhUW0xgwFPUw,hospitals,Concentra Medical Centers,43.1198196,-89.324028
JhZoDlaiz9xLjqTJzhlUtA,hospitals,UW Health - Otolaryngology,43.06723,-89.39998
Dp-WcXAtglYi58Nm2DbozQ,hospitals,Wisconsin Sleep,43.05446,-89.48371
SxdIfpEa_whbUZs8hN_JOA,hospitals,UW Health Psychiatric Institute and Clinic,43.0552322458832,-89.4841201533249
5BtUisD251yRsg9bChaW7g,hospitals,Dean Urgent Care Centers,43.0722389221191,-89.3078536987305
hS-8XtArWfPc25w_J3ff5g,hospitals,Rudin Nathan J MD,43.1447487,-89.2895966
l8CeHjnLdzlRmv51RVcIyQ,hospitals,UW Health - East Clinic,43.144786,-89.288749
D9ck1wA8Mi4S82ZZJl_7aw,hospitals,UW Health University Station Optical Shop,43.076333899247,-89.4386464169151
Cn_M8hknlZHaAxdnXiGoKw,hospitals,UW Health Behavioral Health & Recovery,43.0550079345703,-89.3973932266235
q3JmKMabLlIwnOVwyg4hgg,hospitals,SSM Health Dean Medical Group - Digestive Health,43.05927,-89.40151
8A4fBvGOaF9rkRqDiBkVbg,hospitals,Vivent Health,43.07682,-89.37459
2WDI4NW_MEBXF8ymW0oa9A,hospitals,Miller Kim J Dr,43.06135,-89.50582
2JHS6YDyVtZjBCRTSDAilw,hospitals,Group Health Cooperative of South Central Wisconsin,43.0213928222656,-89.4201889038086
HWBce5Z2pjC-0E2lhd7sxg,hospitals,Meriter McKee Clinic,43.015749,-89.5022004
dAvs7LtUVnuCa0-oSnc-iA,hospitals,SSM Health Dean Medical Group,43.05256,-89.39828
slgxeiyeclRu1HExP-rC-A,hospitals,Access Womens Center,43.10202,-89.3456
hl4vOA7T2VrTKWh1jXFssQ,hospitals,Wingra Family Medical Center,43.054839,-89.39762
10r7cl4SxcJ3WB6muiBQqQ,hospitals,Union Corners Urgent Care Clinic,43.0978841,-89.349659
mqnCX2fst5uQRH9IsM_ojw,hospitals,Dean Clinic - East,43.0722389221191,-89.3078536987305
P46wBAVeVn74AoMYoZrjIA,hospitals,UnityPoint Health - Meriter - Fitchburg Clinic,43.00072,-89.42487
T6KoF8J3tdNWKfSD9AmdrA,hospitals,SSM Health Dean Medical Group,43.05256,-89.39828
wT-yIESTv_9kcckDIXqMcA,hospitals,Dean Urgent Care Centers,43.0770416,-89.5199966
HRHaHCQ9UQWtHFAeXTo1WQ,hospitals,Concentra,43.1198196,-89.324028
99kIc72oATFtN5WJxHH_Dw,hospitals,UW Health Research Park Cardiovascular Medicine Clinic,43.054365,-89.469692
WucS2idxghSzRHrQr8aVfA,hospitals,Planned Parenthood - Madison South Health Center,43.04148,-89.39448
IQDOSTF0NpeHlku6woaWLw,hospitals,Concentra Medical Centers,43.06741,-89.5251399
jJF5IG6hiqLF3je5JtmDtw,hospitals,UW Health West Towne Clinic,43.06135,-89.50582
GgsiehHJs_Lu8Z5ZOZJaww,hospitals,UW Health - Yahara Clinic,43.0481459,-89.3155985
qCYmExTQQnWymiDdf3i3Jw,hospitals,Wisconsin Integrative Hyperbaric Center,43.0130004882812,-89.4748840332031
h6bpV_bXiU9GWtg1pxisWg,hospitals,UW Health West Clinic,43.0693,-89.52371
3JDBw5fyWaSMhJv626wrMQ,hospitals,Drug & Alcohol Testing 24/7,43.0476652962774,-89.341815
ArPH5E5bz9A5UQ6cYDZzEw,hospitals,Planned Parenthood - Madison East Health Center,43.12341,-89.32404
H3hgOl7NcAG8AKuOjVcBqQ,supermarket,Capitol Centre Market,43.0727424621582,-89.39013671875
I6iOdOeu3MxxuG6gIhzodQ,supermarket,Metcalfe's Market,43.074135391758,-89.452798752188
IPUGrf2xuClfxfBIA020kw,supermarket,Woodman's Market,43.09726,-89.31932
Cb-Xl9s4AboAeOO_T9LdnA,supermarket,A-Mart Asian Grocery,43.0502598446539,-89.4757534644599
Tk79j0dMuCDF24NhXSeIfg,supermarket, Fresh Madison Market,43.072949,-89.397766
SdqVhZDwk8c89EnXPhKndQ,supermarket,J&P Fresh Market,43.050634,-89.497717
VSOTAFVRvzO45J5ieW2MgA,supermarket,Asian Midway Foods,43.0640231072903,-89.4006456434727
JUZKAEK1ihMqB0x2GS90zA,supermarket,Festival Foods,43.08140122214428,-89.37510891298079
pYJtM8BaRUwNg3hkO3v2sQ,supermarket,Trader Joe's,43.0649866,-89.4175436
rb2IywByQD6QWz4pWnbWqg,supermarket,Oriental Food Mart,43.05356,-89.3966499
I0duIU0JFlCTQKgEbaLZWQ,supermarket,Pick 'n Save,43.0649317765977,-89.5247749239206
ITieHQ8UwKq74FnqTKnPOQ,supermarket,Pinkus McBride Market,43.0791526,-89.3838875
qlYEn2ANcY-x-2IwgOD91g,supermarket,Willy Street Co-op - West,43.0965824957376,-89.5003128869869
mn5Dc67wj1Oczt-5MazAqQ,supermarket,The Conscious Carnivore,43.075438,-89.4430872
_j0xNyOAtLI7iRF4GStBgA,supermarket,Metcalfe's Market,43.058029168266,-89.5112173356492
jXlwnhA6gV05KhwZSUPbbQ,supermarket,Woodman's Market,43.04871671995416,-89.5007918116615
FEH0i7SnTH81k451ZadKIQ,supermarket,Dane County Farmers' Market,43.0746800747896,-89.3840345838153
A-BAoIbzDeHRI9xENs2q0Q,supermarket,Global Market & Food Hall,43.127944,-89.300607
ke2ttMeqJqhIXnyBn5rywQ,supermarket,Miller & Sons Supermarket,42.988842010498,-89.5338973999023
gH_S9fJ2AeHUDD9pcNEU6A,supermarket,Pick 'n Save,43.05233,-89.39584
xWhiW9AuKvW4BW-qOkyYDA,supermarket,Walmart Supercenter,43.04253,-89.350138
L4dyF2_ObyWjAG3JgbCWFw,supermarket,Istanbul Supermarket,43.0487842,-89.5029031
SASbVGVSRMmp2yBdpYpk3Q,supermarket,Jenifer Street Market,43.0904884,-89.3516083
da3c-sAS3KM08YVnSOOBAQ,supermarket,Hy-Vee,43.050813319092,-89.4713463211487
mVTpWeqWiuJKVOT2p8d4aA,supermarket,La Rosita Latina Grocery Store,43.0542296,-89.3255629
Uj77Cm-azkhW-F-vMIBbfg,supermarket,Taqueria Gonzalez,43.1035495,-89.4864793
Xp_cWXY5rxDLkX-wqUg-iQ,supermarket,Brennan's Market,43.05576,-89.52444
pL-P2I9KWmp35pIOYgKRaA,supermarket,Festival Foods,42.995534,-89.519579
n1OBohcWoxxaELYjEByt6g,supermarket,Candinas Chocolatier,43.07311,-89.38306
P2qrBSLR5GXsuPEdPV3cPg,supermarket,ALDI,43.05628996862152,-89.52623526978434
x0aZLE_I1YqDobrdlTLl_A,supermarket,Penzeys Spices,43.1247040041852,-89.3098190054297
3eWqNeJ02MJ496WotGlG5w,supermarket,Penzeys Spices,43.0754372,-89.4432077
5lBE_2FYl4xAkmo0-Tpg6w,supermarket,IT'SUGAR,43.0748749,-89.3945133
